{
  "type": "FeatureCollection",
  "features": [
    { "type": "Feature", "id": "sp-ksc",       "geometry": { "type": "Point", "coordinates": [-80.604, 28.608] },  "properties": { "name": "Kennedy Space Center",       "country": "US", "operator": "NASA / SpaceX",        "status": "active", "ts": 1772435598913 } },
    { "type": "Feature", "id": "sp-cape",      "geometry": { "type": "Point", "coordinates": [-80.577, 28.489] },  "properties": { "name": "Cape Canaveral SFS",          "country": "US", "operator": "USSF / ULA",           "status": "active", "ts": 1772435598913 } },
    { "type": "Feature", "id": "sp-vafb",      "geometry": { "type": "Point", "coordinates": [-120.626, 34.632] }, "properties": { "name": "Vandenberg SFB",              "country": "US", "operator": "USSF / SpaceX",        "status": "active", "ts": 1772435598913 } },
    { "type": "Feature", "id": "sp-wallops",   "geometry": { "type": "Point", "coordinates": [-75.488, 37.940] },  "properties": { "name": "Wallops Flight Facility",     "country": "US", "operator": "NASA / Rocket Lab",    "status": "active", "ts": 1772435598913 } },
    { "type": "Feature", "id": "sp-starbase",  "geometry": { "type": "Point", "coordinates": [-97.155, 25.997] },  "properties": { "name": "Starbase Boca Chica",         "country": "US", "operator": "SpaceX",               "status": "active", "ts": 1772435598913 } },
    { "type": "Feature", "id": "sp-baikonur",  "geometry": { "type": "Point", "coordinates": [63.342, 45.965] },   "properties": { "name": "Baikonur Cosmodrome",         "country": "KZ", "operator": "Roscosmos",            "status": "active", "ts": 1772435598913 } },
    { "type": "Feature", "id": "sp-vostochny", "geometry": { "type": "Point", "coordinates": [128.334, 51.884] },  "properties": { "name": "Vostochny Cosmodrome",        "country": "RU", "operator": "Roscosmos",            "status": "active", "ts": 1772435598913 } },
    { "type": "Feature", "id": "sp-plesetsk",  "geometry": { "type": "Point", "coordinates": [40.576, 62.929] },   "properties": { "name": "Plesetsk Cosmodrome",         "country": "RU", "operator": "Russian MOD",          "status": "active", "ts": 1772435598913 } },
    { "type": "Feature", "id": "sp-kourou",    "geometry": { "type": "Point", "coordinates": [-52.768, 5.236] },   "properties": { "name": "Guiana Space Centre",         "country": "FR", "operator": "ESA / Arianespace",    "status": "active", "ts": 1772435598913 } },
    { "type": "Feature", "id": "sp-jiuquan",   "geometry": { "type": "Point", "coordinates": [100.291, 40.958] },  "properties": { "name": "Jiuquan Satellite Launch Center","country": "CN", "operator": "CNSA / CASC",        "status": "active", "ts": 1772435598913 } },
    { "type": "Feature", "id": "sp-xichang",   "geometry": { "type": "Point", "coordinates": [102.027, 28.246] },  "properties": { "name": "Xichang Satellite Launch Center","country": "CN", "operator": "CNSA / CASC",        "status": "active", "ts": 1772435598913 } },
    { "type": "Feature", "id": "sp-wenchang",  "geometry": { "type": "Point", "coordinates": [110.951, 19.614] },  "properties": { "name": "Wenchang Space Launch Site",  "country": "CN", "operator": "CNSA / CASC",          "status": "active", "ts": 1772435598913 } },
    { "type": "Feature", "id": "sp-taiyuan",   "geometry": { "type": "Point", "coordinates": [111.608, 38.849] },  "properties": { "name": "Taiyuan Satellite Launch Center","country": "CN", "operator": "CNSA",               "status": "active", "ts": 1772435598913 } },
    { "type": "Feature", "id": "sp-tanegashima","geometry": { "type": "Point", "coordinates": [131.003, 30.400] }, "properties": { "name": "Tanegashima Space Center",     "country": "JP", "operator": "JAXA",                 "status": "active", "ts": 1772435598913 } },
    { "type": "Feature", "id": "sp-uchinoura", "geometry": { "type": "Point", "coordinates": [131.079, 31.251] },  "properties": { "name": "Uchinoura Space Center",      "country": "JP", "operator": "JAXA",                 "status": "active", "ts": 1772435598913 } },
    { "type": "Feature", "id": "sp-sriharikota","geometry": { "type": "Point", "coordinates": [80.235, 13.720] },  "properties": { "name": "Satish Dhawan Space Centre",   "country": "IN", "operator": "ISRO",                 "status": "active", "ts": 1772435598913 } },
    { "type": "Feature", "id": "sp-semnan",    "geometry": { "type": "Point", "coordinates": [53.921, 35.234] },   "properties": { "name": "Imam Khomeini Spaceport",     "country": "IR", "operator": "ISA",                  "status": "active", "ts": 1772435598913 } },
    { "type": "Feature", "id": "sp-naro",      "geometry": { "type": "Point", "coordinates": [127.535, 34.432] },  "properties": { "name": "Naro Space Center",            "country": "KR", "operator": "KARI",                 "status": "active", "ts": 1772435598913 } },
    { "type": "Feature", "id": "sp-alcantara", "geometry": { "type": "Point", "coordinates": [-44.396, -2.373] },  "properties": { "name": "Alcantara Launch Center",     "country": "BR", "operator": "FAB / AEB",            "status": "active", "ts": 1772435598913 } },
    { "type": "Feature", "id": "sp-mahia",     "geometry": { "type": "Point", "coordinates": [177.864, -39.262] }, "properties": { "name": "Rocket Lab Launch Complex 1", "country": "NZ", "operator": "Rocket Lab",            "status": "active", "ts": 1772435598913 } },
    { "type": "Feature", "id": "sp-esrange",   "geometry": { "type": "Point", "coordinates": [21.104, 67.893] },   "properties": { "name": "Esrange Space Center",        "country": "SE", "operator": "SSC",                  "status": "active", "ts": 1772435598913 } },
    { "type": "Feature", "id": "sp-andoya",    "geometry": { "type": "Point", "coordinates": [16.019, 69.294] },   "properties": { "name": "Andoya Spaceport",            "country": "NO", "operator": "Andoya Space",         "status": "active", "ts": 1772435598913 } },
    { "type": "Feature", "id": "sp-palmach",   "geometry": { "type": "Point", "coordinates": [34.683, 31.050] },   "properties": { "name": "Palmachim Airbase",            "country": "IL", "operator": "ISA / IAF",            "status": "active", "ts": 1772435598913 } },
    { "type": "Feature", "id": "sp-sohae",     "geometry": { "type": "Point", "coordinates": [124.713, 39.660] },  "properties": { "name": "Sohae Satellite Launching Station","country": "KP", "operator": "NADA",             "status": "active", "ts": 1772435598913 } },
    { "type": "Feature", "id": "sp-kodiak",    "geometry": { "type": "Point", "coordinates": [-152.338, 57.436] }, "properties": { "name": "Pacific Spaceport Complex",   "country": "US", "operator": "Alaska Aerospace",     "status": "active", "ts": 1772435598913 } }
  ]
}
